,City,Cloudiness,Country,Date,Humidity,Lat,Lng,Max Temp,Wind Speed
0,Atuona,53,PF,1562992289,75,-9.8,-139.03,80.69,14.61
1,Punta Arenas,90,CL,1562992293,100,-53.16,-70.91,39.2,10.29
2,Solnechnyy,100,RU,1562992326,86,50.72,136.64,65.93,3.38
3,Constitucion,91,MX,1562992422,87,23.99,-104.67,62.01,6.42
4,Ayan,0,IR,1562992424,27,38.23,44.7,78.8,4.7
5,Vaini,75,IN,1562992279,83,15.34,74.49,77.0,9.17
6,Mansoa,75,GW,1562992426,94,12.07,-15.32,69.8,4.7
7,Ponta do Sol,0,BR,1562992427,62,-20.63,-46.0,55.67,1.5
8,Mazarron,0,ES,1562992429,57,37.6,-1.31,80.01,2.24
9,Tiksi,42,RU,1562992430,55,71.64,128.87,49.19,5.77
10,Port Alfred,1,ZA,1562992278,91,-33.59,26.89,55.0,1.99
11,Bathsheba,40,BB,1562992325,78,13.22,-59.52,80.6,14.99
12,Rikitea,56,PF,1562992303,81,-23.12,-134.97,74.03,11.43
13,Santa Cruz,3,BR,1562992406,86,-6.22,-36.02,67.19,9.91
14,Mataura,99,NZ,1562992387,88,-46.19,168.86,51.01,1.01
15,Hobart,75,AU,1562992298,57,-42.88,147.33,48.2,14.99
16,Port Elizabeth,1,US,1562992280,94,39.31,-74.98,77.0,3.24
17,Ambon,0,FR,1562992439,93,47.55,-2.56,60.01,13.87
18,Kutoarjo,1,ID,1562992440,51,-7.72,109.9,84.11,11.03
19,Yenagoa,87,NG,1562992441,94,4.92,6.26,72.95,1.05
20,Tuktoyaktuk,40,CA,1562992443,66,69.44,-133.03,50.0,5.82
21,Aklavik,20,CA,1562992444,54,68.22,-135.01,55.4,5.82
22,Khatanga,94,RU,1562992445,62,71.98,102.47,55.85,9.1
23,Ushuaia,75,AR,1562992271,80,-54.81,-68.31,39.2,6.93
24,Sao Filipe,0,CV,1562992448,85,14.9,-24.5,72.05,14.5
25,Bohl-Iggelheim,75,DE,1562992449,87,49.38,8.3,60.01,3.36
26,Thompson,40,CA,1562992152,59,55.74,-97.86,64.4,5.82
27,East London,0,ZA,1562992095,87,-33.02,27.91,57.2,10.29
28,Sabancuy,100,MX,1562992452,70,18.97,-91.18,83.03,18.92
29,Sola,99,TZ,1562992454,66,-3.17,33.8,68.27,3.29
30,Zhigansk,100,RU,1562992455,48,66.77,123.37,68.63,19.39
31,Saint George,20,GR,1562992316,93,39.45,22.34,64.4,1.25
32,Ballina,97,IE,1562992457,83,54.11,-9.15,57.0,1.99
33,Kapaa,1,US,1562992290,69,22.08,-159.32,84.2,17.22
34,Ribeira Grande,21,PT,1562992460,87,38.52,-28.7,71.69,14.07
35,Vardo,40,US,1562992461,88,39.62,-77.74,71.6,2.66
36,Turukhansk,85,RU,1562992462,45,65.8,87.96,72.77,13.67
37,Fatehabad,75,IN,1562992463,75,27.03,78.3,89.6,13.87
38,Burnie,11,AU,1562992465,67,-41.05,145.91,43.97,11.61
39,Mahebourg,40,MU,1562992284,82,-20.41,57.7,70.0,3.36
40,Saldanha,71,PT,1562992467,58,41.42,-6.55,71.69,3.98
41,Barrow,0,AR,1562992309,75,-38.31,-60.23,41.27,4.9
42,Geraldton,40,CA,1562992191,82,49.72,-86.95,62.6,4.7
43,Beringovskiy,47,RU,1562992308,51,63.05,179.32,70.97,0.98
44,Ketchikan,1,US,1562992471,82,55.34,-131.65,62.6,4.7
45,Dikson,81,RU,1562992473,95,73.51,80.55,32.09,11.61
46,Aripuana,72,BR,1562992474,65,-9.17,-60.63,73.85,0.51
47,Butaritari,28,KI,1562992274,80,3.07,172.79,83.93,15.39
48,Acapulco,90,MX,1562992476,74,16.86,-99.88,84.2,2.24
49,Saquena,21,PE,1562992477,90,-4.67,-73.52,71.33,0.45
50,Ilulissat,8,GL,1562992479,87,69.22,-51.1,42.8,6.93
51,Debre Tabor,100,ET,1562992480,85,11.86,38.01,61.61,3.94
52,Coahuayana,99,MX,1562992481,95,18.62,-100.35,71.51,2.19
53,Hermanus,0,ZA,1562992297,97,-34.42,19.24,50.0,1.01
54,Axim,59,GH,1562992484,90,4.87,-2.24,74.21,9.82
55,Souillac,20,FR,1562992364,93,45.6,-0.6,64.0,1.12
56,Wattegama,39,LK,1562992486,53,7.35,80.68,88.43,6.87
57,Bredasdorp,1,ZA,1562992302,97,-34.53,20.04,48.0,1.01
58,Saskylakh,98,RU,1562992383,48,71.97,114.09,61.25,6.71
59,Bauchi,72,NG,1562992490,89,10.31,9.85,70.07,3.27
60,Shimoda,75,JP,1562992491,88,34.7,138.93,80.01,5.82
61,Manokwari,65,ID,1562992256,75,-0.87,134.08,78.17,5.19
62,Paka,98,CF,1562992493,98,4.15,15.03,67.55,2.01
63,Longkou,0,CN,1562992494,54,37.64,120.47,81.59,4.68
64,Ambilobe,0,MG,1562992496,44,-13.19,49.05,78.53,9.78
65,Severo-Kurilsk,91,RU,1562992327,95,50.68,156.12,44.87,7.47
66,Kaitangata,100,NZ,1562992498,68,-46.28,169.85,51.01,4.0
67,Chara,20,GR,1562992357,93,39.42,22.43,64.4,1.25
68,Puerto Ayora,56,EC,1562992314,93,-0.74,-90.35,68.0,8.81
69,Kodiak,1,US,1562992328,53,39.95,-94.76,73.99,5.82
70,Petropavlovsk-Kamchatskiy,90,RU,1562992503,93,53.05,158.65,51.8,11.18
71,Jamestown,15,AU,1562992197,64,-33.21,138.6,51.2,14.36
72,Mount Gambier,75,AU,1562992505,76,-37.83,140.78,48.2,21.92
73,Sisimiut,100,GL,1562992506,88,66.94,-53.67,40.55,8.72
74,Hasaki,75,JP,1562992508,74,35.73,140.83,80.6,6.93
75,Kavieng,100,PG,1562992509,74,-2.57,150.8,81.95,5.88
76,Paita,0,PE,1562992510,91,-5.09,-81.11,64.13,8.5
77,Esperance,90,AU,1562992511,67,-33.86,121.89,57.2,0.96
78,Binga,0,ZW,1562992513,39,-17.62,27.34,56.57,0.36
79,Ganzhou,100,CN,1562992514,74,25.86,114.93,83.21,6.33
80,Kattivakkam,75,IN,1562992515,74,13.22,80.32,86.0,9.17
81,Saint-Philippe,1,CA,1562992516,77,45.36,-73.48,69.01,4.7
82,Bay Roberts,40,CA,1562992518,87,47.58,-53.28,51.01,16.11
83,Chicama,90,PE,1562992519,93,-7.84,-79.15,62.6,9.17
84,Shelburne,1,CA,1562992520,93,44.08,-80.2,64.4,2.24
85,Ormara,68,PK,1562992521,56,25.21,64.64,89.33,11.61
86,Bethel,90,US,1562992315,93,60.79,-161.76,64.4,6.93
87,Cherskiy,12,RU,1562992524,41,68.75,161.3,74.75,4.29
88,Puri,5,ID,1562992525,42,-7.54,112.45,86.63,14.07
89,Flinders,0,AU,1562992276,37,-34.58,150.85,57.99,28.86
90,Clyde River,90,CA,1562992362,86,70.47,-68.59,41.0,4.7
91,Leningradskiy,96,RU,1562992529,78,69.38,178.42,47.21,7.56
92,Lebu,90,ET,1562992530,87,8.96,38.73,57.2,4.7
93,Torbay,40,CA,1562992531,87,47.66,-52.73,51.01,16.11
94,Vao,89,EE,1562992391,61,59.1,26.19,59.81,5.82
95,Kawalu,41,ID,1562992533,58,-7.38,108.21,78.71,7.43
96,Mount Isa,35,AU,1562992535,24,-20.73,139.49,71.6,19.46
97,Sorland,3,NO,1562992536,83,67.67,12.69,50.09,24.07
98,Bereda,0,ES,1562992537,82,43.27,-7.54,66.99,2.24
99,Ericeira,75,PT,1562992263,93,38.96,-9.42,66.2,12.75
100,Dalby,19,AU,1562992539,28,-27.18,151.26,69.01,26.4
101,Albany,90,US,1562992213,77,42.65,-73.75,72.0,3.36
102,Anadyr,0,RU,1562992273,41,64.73,177.51,77.0,4.47
103,Cabo San Lucas,5,MX,1562992431,42,22.89,-109.91,84.2,14.99
104,Busselton,24,AU,1562992322,46,-33.64,115.35,62.01,9.13
105,Lagoa,75,PT,1562992545,94,37.14,-8.45,68.0,5.82
106,Faanui,0,PF,1562992546,68,-16.48,-151.75,77.99,4.07
107,Ancud,90,CL,1562992548,100,-41.87,-73.83,46.4,14.99
108,Norman Wells,20,CA,1562992549,51,65.28,-126.83,62.6,4.7
109,Castro,90,CL,1562992343,100,-42.48,-73.76,46.4,14.99
110,New Norfolk,75,AU,1562992363,57,-42.78,147.06,48.2,14.99
111,Qaanaaq,97,GL,1562992377,56,77.48,-69.36,43.79,7.63
112,Coquimbo,0,CL,1562992554,87,-29.95,-71.34,48.99,3.36
113,Tasiilaq,14,GL,1562992555,87,65.61,-37.64,42.8,5.82
114,Sabha,0,LY,1562992556,11,27.03,14.43,91.85,5.46
115,Gornoye Loo,75,RU,1562992557,77,43.72,39.61,68.0,6.71
116,Avarua,59,CK,1562992559,78,-21.21,-159.78,71.6,6.93
117,Victoria,75,BN,1562992293,74,5.28,115.24,89.6,5.82
118,Georgetown,75,GY,1562992358,94,6.8,-58.16,75.2,2.24
119,Honningsvag,99,NO,1562992562,81,70.98,25.97,45.05,12.33
120,Rome,0,IT,1562992427,82,41.89,12.48,73.4,3.36
121,Fengzhen,36,CN,1562992565,33,40.43,113.15,79.43,4.03
122,Hithadhoo,0,MV,1562992414,75,-0.6,73.08,84.65,12.86
123,Goderich,28,CA,1562992567,90,43.74,-81.71,62.01,15.93
124,Hilo,1,US,1562992369,61,19.71,-155.08,80.6,8.05
125,Jalu,0,LY,1562992570,46,29.03,21.55,79.61,10.02
126,Chihuahua,40,MX,1562992547,30,28.66,-106.08,82.0,6.93
127,Port Hawkesbury,90,CA,1562992572,100,45.62,-61.36,60.01,11.41
128,Bluff,48,AU,1562992291,36,-23.58,149.07,72.77,9.48
129,Alice Springs,0,AU,1562992505,36,-23.7,133.88,62.6,13.87
130,Oeiras do Para,2,BR,1562992576,98,-2.0,-49.85,71.69,2.19
131,Cape Town,0,ZA,1562991987,100,-33.93,18.42,50.0,3.36
132,Palmer,20,AU,1562992578,58,-34.85,139.16,57.0,17.22
133,Anshun,100,CN,1562992579,94,26.25,105.93,62.33,2.89
134,Tessalit,0,ML,1562992581,20,20.2,1.01,87.53,10.58
135,Yellowknife,40,CA,1562992530,54,62.45,-114.38,55.4,5.82
136,Dudinka,75,RU,1562992583,72,69.41,86.18,59.0,20.13
137,Baherden,46,TM,1562992584,32,38.44,57.43,90.41,3.0
138,Paamiut,100,GL,1562992585,92,61.99,-49.67,41.63,11.5
139,Nola,85,CF,1562992587,96,3.52,16.05,68.81,0.58
140,Dharchula,87,IN,1562992588,84,29.85,80.53,62.51,4.94
141,Presidencia Roque Saenz Pena,100,AR,1562992589,85,-26.79,-60.44,64.13,6.2
142,Port Macquarie,40,AU,1562992590,29,-31.43,152.91,70.0,20.8
143,Pacific Grove,90,US,1562992592,77,36.62,-121.92,68.0,9.17
144,Port Hardy,100,CA,1562992593,89,50.7,-127.42,58.37,5.91
145,Daru,45,PG,1562992347,73,-9.07,143.21,77.45,9.82
146,Kieta,44,PG,1562992595,78,-6.22,155.63,82.85,11.05
147,Pombal,6,BR,1562992596,74,-6.77,-37.8,67.73,7.07
148,Broome,66,GB,1562992598,93,52.47,1.45,61.0,5.82
149,Rocha,98,UY,1562992599,92,-34.48,-54.34,51.35,7.43
150,Tulghes,59,RO,1562992600,25,46.95,25.77,66.99,2.42
151,Inhambane,38,MZ,1562992601,78,-23.87,35.38,69.35,5.88
152,Chokurdakh,73,RU,1562992602,48,70.62,147.9,58.91,10.98
153,Lisakovsk,0,KZ,1562992604,29,52.55,62.49,90.77,17.63
154,Upernavik,42,GL,1562992605,86,72.79,-56.15,44.51,14.09
155,Pevek,100,RU,1562992606,99,69.7,170.27,39.83,5.82
156,Shache,11,CN,1562992607,9,38.42,77.24,96.35,6.71
157,Saint Anthony,1,US,1562992609,36,43.97,-111.68,75.2,8.05
158,Skovorodino,78,RU,1562992610,31,53.99,123.94,86.27,2.84
159,Mahon,75,IE,1562992611,87,51.89,-8.4,57.99,8.05
160,Nikolskoye,0,RU,1562992336,76,59.7,30.79,55.4,4.47
161,Kasongo-Lunda,27,CD,1562992614,81,-6.48,16.82,63.77,2.04
162,Vila,0,IT,1562992615,82,45.18,8.4,71.01,4.7
163,Douglas,90,US,1562992616,100,58.28,-134.39,60.01,1.99
164,Chuy,85,UY,1562992617,91,-33.69,-53.46,54.05,13.09
165,Irtyshskiy,65,RU,1562992619,51,58.33,68.13,85.19,9.78
166,Kruisfontein,6,ZA,1562992375,91,-34.0,24.73,50.81,4.83
167,Nantucket,90,US,1562992621,94,41.28,-70.1,73.0,6.93
168,Salinopolis,34,BR,1562992622,77,-0.61,-47.36,80.69,12.68
169,Venado Tuerto,0,AR,1562992623,95,-33.75,-61.97,36.0,1.99
170,Fort Frances,1,CA,1562992625,93,48.61,-93.4,60.01,3.87
171,Iqaluit,20,CA,1562992626,76,63.75,-68.52,50.0,8.05
172,Carnarvon,0,ZA,1562992627,30,-30.97,22.13,49.91,8.14
173,Praia,0,BR,1562992628,93,-20.25,-43.81,53.6,0.98
174,Douentza,64,ML,1562992630,51,15.01,-2.95,81.59,7.38
175,Salalah,90,OM,1562992390,100,17.01,54.1,78.8,8.05
176,Gobo,75,JP,1562992632,83,33.89,135.15,81.0,8.05
177,San Patricio,71,PY,1562992633,76,-26.98,-56.83,65.93,2.35
178,Champerico,90,MX,1562992634,94,16.38,-93.6,71.6,3.76
179,Touros,40,BR,1562992363,100,-5.2,-35.46,73.4,4.7
180,Wajima,75,JP,1562992637,78,37.4,136.9,71.6,6.93
181,Loanda,0,BR,1562992638,71,-22.93,-53.14,61.43,4.32
182,Evensk,0,RU,1562992639,56,61.92,159.24,67.73,8.34
183,Ola,1,RU,1562992640,67,59.58,151.3,61.43,7.63
184,Buchanan,75,LR,1562992642,100,5.88,-10.05,75.2,12.41
185,Muros,0,ES,1562992351,88,42.77,-9.06,73.0,2.24
186,Zyryanskoye,7,RU,1562992644,31,56.83,86.62,81.05,5.73
187,Port Said,9,EG,1562992645,17,25.34,30.55,96.17,9.66
188,Palembang,23,ID,1562992338,54,-2.99,104.76,90.05,5.03
189,Dutlwe,0,BW,1562992648,27,-23.98,23.93,51.89,9.35
190,Bandarbeyla,97,SO,1562992649,38,9.49,50.81,88.25,32.5
191,Basco,1,US,1562992650,83,40.33,-91.2,73.4,3.67
192,Maroantsetra,68,MG,1562992651,91,-15.43,49.74,66.11,3.06
193,Khani,90,GE,1562992652,100,41.96,42.96,62.6,10.29
194,Valparaiso,1,US,1562992610,42,41.47,-87.06,78.8,5.37
195,Isangel,40,VU,1562992655,61,-19.55,169.27,80.6,9.17
196,Banepa,90,NP,1562992414,100,27.63,85.52,68.0,8.05
197,Mar del Plata,99,AR,1562992657,57,-46.43,-67.52,41.99,6.67
198,Morant Bay,20,JM,1562992424,58,17.88,-76.41,84.2,18.34
199,Alofi,58,NU,1562992660,94,-19.06,-169.92,71.6,9.17
200,Nyurba,84,RU,1562992661,59,63.29,118.35,76.37,6.55
201,Warrnambool,49,AU,1562992662,57,-38.38,142.48,53.01,13.0
202,Lavrentiya,100,RU,1562992344,42,65.58,-170.99,69.71,5.61
203,Gamba,97,CN,1562992665,41,28.28,88.52,56.03,12.39
204,Kloulklubed,90,PW,1562992666,83,7.04,134.26,80.6,21.92
205,Bourail,100,NC,1562992667,68,-21.57,165.5,68.45,0.69
206,Arraial do Cabo,0,BR,1562992335,77,-22.97,-42.02,65.75,5.7
207,Ixtapa,90,MX,1562992669,100,20.71,-105.21,79.0,3.36
208,Port Augusta,75,AU,1562992386,62,-32.49,137.76,55.4,17.22
209,Yulara,0,AU,1562992672,36,-25.24,130.99,62.6,12.75
210,Vostok,85,RU,1562992281,48,46.45,135.83,77.99,3.22
211,Mezen,40,RU,1562992674,54,65.85,44.24,60.53,2.75
212,Idlib,40,SY,1562992675,69,35.93,36.64,79.0,12.75
213,Northam,29,AU,1562992677,55,-31.65,116.67,62.6,11.41
214,Honiara,75,SB,1562992678,63,-9.43,159.96,91.4,8.05
215,Casa Nova,0,BR,1562992679,64,-16.03,-44.16,59.09,4.25
216,Hailar,58,CN,1562992680,32,49.2,119.7,85.01,7.92
217,Skjervoy,35,NO,1562992682,83,70.03,20.97,49.01,3.27
218,Korba,95,IN,1562992683,51,22.35,82.71,92.39,7.45
219,Hamilton,20,CA,1562992422,100,43.26,-79.87,68.0,3.36
220,Nome,1,US,1562992685,83,30.04,-94.42,86.0,5.82
221,Ibipeba,0,BR,1562992394,86,-11.64,-42.01,56.39,6.24
222,Mehamn,100,NO,1562992687,70,71.03,27.85,45.59,9.98
223,Coihaique,90,CL,1562992555,93,-45.58,-72.07,35.6,2.24
224,Kavaratti,49,IN,1562992690,76,10.57,72.64,83.21,11.5
225,Winnemucca,1,US,1562992691,24,40.97,-117.74,78.8,9.17
226,Samarai,100,PG,1562992692,96,-10.62,150.67,72.95,3.91
227,Nkawkaw,99,GH,1562992693,99,6.55,-0.77,68.99,1.83
228,Sherlovaya Gora,22,RU,1562992695,24,50.53,116.31,87.35,10.65
229,Manzhouli,21,CN,1562992696,29,49.6,117.43,83.21,5.99
230,Cidreira,87,BR,1562992333,94,-30.17,-50.22,62.69,6.49
231,Ouegoa,74,NC,1562992698,73,-20.34,164.44,71.87,8.52
232,Hammerfest,0,NO,1562992700,61,70.66,23.68,50.0,13.87
233,Hohhot,40,CN,1562992701,39,40.81,111.65,84.2,4.47
234,Joao Pinheiro,0,BR,1562992702,56,-17.74,-46.17,59.63,4.34
235,Ailigandi,98,PA,1562992704,79,9.23,-78.02,81.05,5.99
236,Port Hedland,0,AU,1562992705,9,-20.31,118.58,84.2,21.92
237,Caravelas,0,BR,1562992557,83,-17.73,-39.27,67.55,4.21
238,Floro,19,NO,1562992707,87,61.6,5.03,55.4,6.93
239,Marawi,100,PH,1562992708,75,8.0,124.29,82.99,5.01
240,Altamont,1,CA,1562992710,100,49.4,-98.5,64.4,2.1
241,Den Helder,90,NL,1562992711,87,52.96,4.76,62.6,5.82
242,Pasni,56,PK,1562992712,45,25.26,63.48,94.19,10.11
243,Codajas,24,BR,1562992713,97,-3.84,-62.06,70.79,0.94
244,Darhan,39,MN,1562992715,52,49.49,105.92,77.63,8.97
245,Nkowakowa,0,ZA,1562992716,29,-23.89,30.29,48.2,5.82
246,Nenjiang,99,CN,1562992717,68,49.17,125.23,76.73,1.95
247,Dalbandin,0,PK,1562992718,23,28.9,64.41,98.51,12.08
248,Beidao,1,CN,1562992720,31,34.57,105.89,80.51,5.61
249,Coos Bay,90,US,1562992373,88,43.37,-124.22,63.0,10.29
250,Pringsewu,77,ID,1562992602,60,-5.36,104.98,83.39,5.59
251,Khandagayty,98,MN,1562992723,83,50.73,92.07,56.21,3.06
252,Pontianak,12,ID,1562992725,78,-0.02,109.34,82.49,15.79
253,Talcahuano,90,CL,1562992726,100,-36.72,-73.12,51.8,13.87
254,Sedam,83,IN,1562992727,55,17.18,77.28,87.89,14.94
255,Fallon,1,US,1562992728,82,46.84,-105.12,68.0,2.84
256,Meulaboh,43,ID,1562992730,69,4.14,96.13,83.75,2.98
257,Jiangkou,99,CN,1562992731,80,30.7,117.56,77.99,7.31
258,Kargil,59,PK,1562992732,29,34.56,76.13,61.07,1.99
259,Mackenzie,90,CA,1562992524,67,55.34,-123.09,62.6,5.82
260,Viedma,0,AR,1562992734,60,-40.81,-62.99,43.25,7.54
261,Kijang,90,KR,1562992736,73,35.24,129.21,75.2,9.17
262,Port Blair,40,IN,1562992737,70,11.67,92.75,86.0,9.17
263,Povenets,89,RU,1562992738,92,62.85,34.83,47.93,5.46
264,Opuwo,3,NA,1562992513,27,-18.06,13.84,52.79,5.26
265,Mbanza-Ngungu,24,CD,1562992741,94,-5.25,14.87,64.67,3.53
266,Ostrovnoy,51,RU,1562992742,63,68.05,39.51,49.55,6.76
267,Necochea,13,AR,1562992447,88,-38.55,-58.74,50.0,4.0
268,Luderitz,0,NA,1562992445,87,-26.65,15.16,50.0,3.36
269,Sao Felix do Xingu,0,BR,1562992473,81,-6.64,-51.99,68.09,1.79
270,General Roca,0,AR,1562992746,70,-39.03,-67.58,42.8,4.7
271,Altus,1,US,1562992748,61,34.64,-99.33,80.6,6.93
272,Kaspiyskiy,100,RU,1562992703,50,45.39,47.37,71.15,10.71
273,Mookane,0,BW,1562992750,28,-23.68,26.66,52.07,2.64
274,Quatre Cocos,40,MU,1562992751,82,-20.21,57.76,71.01,3.36
275,Damghan,16,IR,1562992753,37,36.17,54.34,78.71,0.56
276,Nuuk,75,GL,1562992754,87,64.17,-51.74,44.6,12.75
277,Barranca,100,PE,1562992755,86,-10.75,-77.76,61.97,14.29
278,Miraflores,0,PE,1562992756,27,-16.39,-71.52,50.0,4.7
279,Fortuna,20,ES,1562992757,47,38.18,-1.13,82.0,9.17
280,Hualmay,100,PE,1562992759,86,-11.1,-77.61,61.97,14.29
281,Hinton,98,CA,1562992760,89,53.4,-117.57,49.91,1.54
282,Yar-Sale,2,RU,1562992761,48,66.83,70.83,63.95,5.03
283,Mokrousovo,0,RU,1562992762,61,55.81,66.77,79.07,13.04
284,Alexandria,67,RO,1562992743,68,43.97,25.33,64.0,4.74
285,Hanko,51,FI,1562992765,67,59.83,22.95,57.0,1.01
286,Colchester,75,US,1562992766,73,41.58,-72.33,75.2,4.7
287,Phek,100,IN,1562992767,92,25.7,94.46,77.81,3.56
288,Pavlovka,82,RU,1562992768,64,52.69,47.13,67.37,4.34
289,Port Lincoln,44,AU,1562992770,65,-34.72,135.86,53.87,17.9
290,Qaqortoq,75,GL,1562992771,75,60.72,-46.03,46.4,4.7
291,Kardymovo,47,RU,1562992772,57,54.89,32.44,56.75,3.94
292,Fairbanks,90,US,1562992759,93,64.84,-147.72,64.4,3.36
293,Querfurt,75,DE,1562992775,93,51.38,11.6,61.0,8.05
294,Jackson,75,US,1562992550,37,43.48,-110.76,69.8,6.93
295,Srednekolymsk,59,RU,1562992777,39,67.46,153.71,82.31,4.79
296,Pangai,75,TO,1562992778,73,-19.8,-174.35,77.0,10.29
297,Matara,38,BI,1562992779,68,-3.48,29.48,56.57,4.88
298,Nchelenge,4,ZM,1562992781,43,-9.35,28.74,59.45,9.64
299,Narsaq,75,GL,1562992373,75,60.91,-46.05,46.4,4.7
300,Airai,56,TL,1562992783,49,-8.93,125.41,81.59,4.72
301,Itupiranga,10,BR,1562992619,94,-5.13,-49.33,75.2,4.16
302,Otavi,0,NA,1562992786,28,-19.64,17.34,52.25,6.02
303,Sao Joao da Barra,0,BR,1562992655,89,-21.64,-41.05,59.27,3.85
304,Pasighat,100,IN,1562992788,99,28.06,95.33,69.53,0.69
305,Goundam,12,ML,1562992790,45,16.42,-3.66,86.63,15.75
306,Talnakh,75,RU,1562992791,72,69.49,88.39,59.0,20.13
307,Husavik,49,CA,1562992792,74,50.56,-96.99,64.0,4.34
308,Orotukan,42,RU,1562992793,30,62.26,151.67,82.49,8.41
309,Longyearbyen,75,NO,1562992795,86,78.22,15.63,41.0,14.99
310,Vanimo,66,PG,1562992796,72,-2.67,141.3,82.13,8.46
311,Minsk,20,BY,1562992797,93,53.9,27.56,51.8,4.47
312,Terra Santa,58,BR,1562992798,95,-2.1,-56.49,72.23,2.68
313,Mao,20,DO,1562992800,88,19.55,-71.08,81.0,6.93
314,Haines Junction,98,CA,1562992801,77,60.75,-137.51,49.73,5.19
315,Yanam,75,IN,1562992802,63,16.73,82.22,91.4,5.82
316,Havre-Saint-Pierre,90,CA,1562992803,100,50.23,-63.6,55.4,11.41
317,Byron Bay,38,AU,1562992805,33,-28.65,153.62,75.2,12.75
318,Yarmouth,20,CA,1562992806,93,43.84,-66.12,64.0,4.7
319,Riyadh,0,SA,1562992807,11,24.63,46.72,87.8,6.93
320,Youghal,47,IE,1562992809,80,51.95,-7.85,59.0,7.0
321,Komsomolets,0,RU,1562992810,70,52.77,41.29,65.57,3.09
322,Walvis Bay,90,NA,1562992811,93,-22.95,14.51,59.0,8.05
323,Ambalavao,0,MG,1562992812,59,-21.83,46.94,60.89,3.44
324,Berlevag,86,NO,1562992814,83,70.86,29.09,44.51,5.37
325,Provideniya,100,RU,1562992285,44,64.42,-173.23,70.25,5.28
326,Bowen,99,AU,1562992816,27,-20.01,148.25,78.8,10.29
327,Port-Gentil,97,GA,1562992817,86,-0.72,8.78,75.47,9.98
328,Erzin,40,TR,1562992819,69,36.95,36.2,79.0,12.75
329,Chernushka,68,RU,1562992820,75,56.5,56.08,76.19,11.12
330,Taoudenni,0,ML,1562992821,6,22.68,-3.98,89.87,7.43
331,Lata,67,IN,1562992360,95,30.78,78.62,48.83,7.9
332,Hastings,34,NZ,1562992823,84,-39.64,176.84,48.47,2.53
333,Huangpi,40,CN,1562992825,78,30.88,114.37,78.8,4.47
334,Cap Malheureux,40,MU,1562992826,82,-19.98,57.61,71.01,3.36
335,Birjand,0,IR,1562992827,11,32.86,59.22,89.6,6.93
336,Seymchan,57,RU,1562992829,35,62.93,152.39,81.59,1.5
337,Hofn,98,IS,1562992371,96,64.25,-15.21,42.17,1.95
338,Huarmey,100,PE,1562992831,86,-10.07,-78.15,62.87,14.9
339,Hit,0,IQ,1562992768,20,33.64,42.83,90.59,20.4
340,Bambous Virieux,40,MU,1562992833,82,-20.34,57.76,71.01,3.36
341,Anaconda,1,US,1562992835,49,46.13,-112.94,69.8,5.82
342,Lazaro Cardenas,40,MX,1562992836,30,28.39,-105.62,82.0,6.93
343,Kaeo,90,NZ,1562992838,84,-35.1,173.78,61.0,5.01
344,Bom Jardim,75,BR,1562992840,94,-7.8,-35.59,68.0,3.36
345,Mindelo,75,PT,1562992841,100,41.31,-8.72,69.01,9.17
346,Tchibanga,3,GA,1562992843,94,-2.92,11.0,68.27,2.08
347,Sechura,2,PE,1562992844,90,-5.56,-80.82,63.77,7.31
348,Huancavelica,0,PE,1562992845,87,-12.79,-74.97,27.59,1.34
349,Portobelo,40,PA,1562992846,100,9.55,-79.65,81.0,2.24
350,Saint-Francois,0,FR,1562992847,93,46.42,3.91,59.0,2.62
351,Lorengau,100,PG,1562992849,73,-2.02,147.27,81.05,11.56
352,Invermere,88,CA,1562992850,71,50.51,-116.03,46.13,4.76
353,Oromocto,90,CA,1562992851,93,45.85,-66.47,64.4,1.57
354,Mayumba,0,GA,1562992852,90,-3.44,10.65,70.97,6.13
355,Grand-Santi,22,GF,1562992854,99,4.27,-54.38,69.35,1.61
356,Bukama,28,CD,1562992855,33,-9.2,25.85,68.99,2.06
357,Cachoeirinha,90,BR,1562992662,100,-29.95,-51.09,64.99,4.7
358,Pattaya,20,TH,1562992860,52,12.93,100.9,100.0,6.93
359,Olean,90,US,1562992862,100,42.08,-78.43,64.0,3.36
360,Pangnirtung,86,CA,1562992863,86,66.15,-65.72,41.45,2.57
361,Laguna,40,BZ,1562992731,94,16.17,-88.94,77.0,1.99
362,Lasa,40,CY,1562992865,73,34.92,32.53,75.2,5.82
363,Bilibino,86,RU,1562992867,37,68.06,166.44,75.83,14.94
364,Ambovombe,0,MG,1562992868,59,-25.18,46.09,70.07,10.42
365,Wanning,75,AT,1562992869,93,48.64,13.53,59.0,5.82
366,Craig,1,US,1562992870,45,40.52,-107.55,66.2,3.8
367,Gat,78,SN,1562992872,83,14.69,-16.54,75.2,4.7
368,Baykit,32,RU,1562992873,35,61.68,96.39,78.35,7.56
369,San Quintin,1,PH,1562992856,68,17.54,120.52,86.63,7.74
370,Salur,82,IN,1562992875,61,18.52,83.21,84.29,10.04
371,Arman,4,RU,1562992877,49,59.7,150.17,78.35,8.21
372,Umm Kaddadah,44,SD,1562992881,57,13.6,26.69,79.97,10.65
373,San Miguel,0,AR,1562992882,100,-34.54,-58.72,51.8,2.24
374,Namatanai,100,PG,1562992883,78,-3.66,152.44,78.89,4.23
375,Katobu,36,ID,1562992885,53,-4.94,122.53,84.47,6.82
376,Kommunar,0,RU,1562992886,76,59.62,30.39,60.01,4.47
377,San Rafael,5,AR,1562992156,71,-34.61,-68.33,44.18,5.01
378,Mayo,90,CA,1562992888,68,63.59,-135.9,64.4,6.93
379,Quelimane,20,MZ,1562992890,93,-17.88,36.89,59.0,2.24
380,Muyezerskiy,100,RU,1562992891,89,63.93,31.65,45.59,9.89
381,Vila Velha,75,BR,1562992892,74,-3.71,-38.6,80.6,12.75
382,Yumen,100,CN,1562992893,34,40.29,97.04,77.81,1.77
383,Fuyu,57,CN,1562992895,56,47.79,124.46,81.05,5.53
384,Ajaccio,0,FR,1562992896,73,41.93,8.74,80.6,8.05
385,Sinnamary,2,GF,1562992897,79,5.38,-52.96,79.79,10.25
386,Nioro,88,GM,1562992898,68,13.79,-15.05,77.45,5.19
387,Carballo,0,ES,1562992900,82,43.21,-8.69,66.99,2.24
388,Batagay,0,RU,1562992901,42,67.65,134.64,82.67,8.01
389,Sakaraha,0,MG,1562992902,38,-22.91,44.53,67.01,2.73
390,Vengerovo,0,RU,1562992903,59,55.68,76.74,76.73,5.97
391,Margate,75,AU,1562992905,57,-43.03,147.26,48.2,14.99
392,Mina,100,PH,1562992909,78,10.93,122.57,82.13,4.09
393,Darnah,0,LY,1562992910,74,32.77,22.64,76.73,12.35
394,Esmeraldas,0,BR,1562992912,76,-19.76,-44.31,57.2,1.12
395,Lompoc,90,US,1562992789,93,34.64,-120.46,64.99,6.93
396,Nishihara,75,JP,1562992914,74,35.74,139.53,84.0,6.93
397,Gorodovikovsk,99,RU,1562992915,83,46.08,41.93,63.41,16.17
398,Lanxi,100,CN,1562992916,97,29.21,119.46,71.51,3.2
399,Kahului,20,US,1562992823,54,20.89,-156.47,84.2,18.34
400,Urubicha,36,BO,1562992919,70,-15.63,-63.08,71.15,1.95
401,Gunjur,98,GM,1562992920,75,13.18,-16.76,76.91,8.25
402,Yakuplu,0,TR,1562992921,54,39.43,38.59,65.21,2.59
403,Myitkyina,100,MM,1562992923,99,25.38,97.4,72.23,1.43
404,Kapit,37,MY,1562992924,51,2.02,112.94,89.87,3.33
405,Mbini,99,GQ,1562992925,87,1.58,9.62,76.01,8.46
406,Sibu,75,MY,1562992926,66,2.29,111.83,87.8,8.05
407,Vanavara,45,RU,1562992928,35,60.35,102.28,79.97,6.58
408,Campoverde,75,EC,1562992929,93,-0.91,-78.62,48.2,6.93
409,Port Arthur,1,US,1562992706,83,29.9,-93.93,84.2,5.82
410,La Ronge,5,CA,1562992931,82,55.1,-105.3,62.6,4.7
411,Atbasar,0,KZ,1562992932,38,51.81,68.36,80.51,12.19
412,Parrita,20,CR,1562992934,100,9.52,-84.33,71.01,3.36
413,Uyskoye,63,RU,1562992935,61,54.37,60.01,77.81,10.96
414,Markova,90,RU,1562992936,100,52.21,104.21,62.01,8.95
415,Brae,73,GB,1562992937,93,60.4,-1.35,51.8,5.82
416,Yinchuan,1,CN,1562992939,20,38.48,106.21,86.99,5.46
417,Donsol,100,PH,1562992940,70,12.91,123.6,84.83,2.59
418,Belaya Gora,46,RU,1562992941,50,68.54,146.19,75.29,20.31
419,San Andres,84,PH,1562992942,60,13.32,122.68,88.79,3.29
420,Motala,100,IN,1562992943,60,20.68,76.21,85.37,13.98
421,Nakamura,75,JP,1562992945,69,35.17,136.87,84.0,3.36
422,Boyolangu,33,ID,1562992946,53,-8.09,111.9,79.61,10.78
423,Kiama,0,AU,1562992947,37,-34.67,150.86,57.99,28.86
424,Nueve de Julio,0,AR,1562992948,75,-31.67,-68.39,45.41,0.78
425,Naze,91,NG,1562992950,94,5.43,7.07,73.13,1.92
426,Lucapa,87,AO,1562992951,31,-8.42,20.74,65.57,2.91
427,Saint-Pierre,0,FR,1562992952,87,48.95,4.24,55.4,6.93
428,Los Llanos de Aridane,0,ES,1562992953,77,28.66,-17.92,69.8,8.05
429,Eureka,1,US,1562992955,93,40.8,-124.16,61.0,6.93
430,Gazanjyk,0,TM,1562992956,43,39.24,55.52,94.01,27.18
431,Toora-Khem,99,RU,1562992957,65,52.47,96.11,66.83,0.76
432,Roald,75,NO,1562992958,93,62.58,6.12,53.6,8.05
433,Codrington,88,AU,1562992960,28,-28.95,153.24,73.4,16.11
434,Novyy Svit,98,UA,1562992961,48,47.81,38.02,70.43,1.7
435,Verkhnevilyuysk,41,RU,1562992962,45,63.45,120.31,84.29,4.45
436,Plettenberg Bay,0,ZA,1562992794,84,-34.05,23.37,51.71,3.74
437,Puerto Baquerizo Moreno,99,EC,1562992965,86,-0.9,-89.6,71.15,8.72
438,Puerto Escondido,90,MX,1562992966,88,15.86,-97.07,78.8,1.88
439,La Palma,93,CO,1562992967,97,5.36,-74.39,66.29,1.74
440,Freeport,29,BS,1562992968,81,26.54,-78.7,82.85,11.05
441,San Francisco,24,CO,1562992970,96,1.17,-76.88,46.85,3.31
442,Bara,76,NG,1562992971,93,10.41,10.6,71.15,7.16
443,Caledonia,1,US,1562992972,60,42.81,-87.92,77.0,5.82
444,La Jagua del Pilar,20,CO,1562992973,65,10.51,-73.07,82.4,14.99
445,Porterville,1,US,1562992975,45,36.07,-119.02,88.0,8.1
446,Nizwa,0,OM,1562992976,14,22.93,57.53,97.07,7.27
447,Berezanka,0,UA,1562992977,82,46.86,31.39,60.8,8.95
448,Khuzdar,0,PK,1562992978,22,27.8,66.62,94.19,7.83
449,Aleppo,21,SY,1562992980,56,36.2,37.17,79.25,12.82
450,Tilichiki,13,RU,1562992981,71,60.47,166.1,58.01,7.31
451,Saint-Joseph,0,FR,1562992982,88,43.56,6.97,80.01,4.7
452,Khorixas,0,NA,1562992983,25,-20.37,14.96,58.55,5.77
453,Guiratinga,0,BR,1562992985,54,-16.35,-53.76,64.67,1.81
454,Luba,1,PH,1562992986,68,17.32,120.7,86.63,7.74
455,Udachnyy,75,RU,1562992987,45,66.42,112.4,66.2,2.24
456,Waingapu,65,ID,1562992988,52,-9.65,120.26,79.07,16.91
457,Kirakira,50,SB,1562992990,72,-10.46,161.92,83.39,4.5
458,Tsiroanomandidy,0,MG,1562992991,60,-18.77,46.05,65.57,3.29
459,Buin,2,CL,1562992861,86,-33.73,-70.74,41.0,4.7
460,Umm Lajj,0,SA,1562992993,70,25.02,37.27,85.01,6.96
461,Ilhabela,0,BR,1562992994,65,-23.78,-45.36,70.97,8.21
462,Glenwood Springs,1,US,1562992996,25,39.55,-107.33,71.6,4.7
463,Santa Rosa,0,AR,1562992997,54,-36.62,-64.29,43.07,4.76
464,Maceio,0,BR,1562992998,94,-9.67,-35.74,68.0,4.7
465,Dhidhdhoo,78,MV,1562993000,69,6.88,73.1,83.75,6.51
466,Egvekinot,89,RU,1562993001,45,66.32,-179.17,71.87,8.16
467,Iranshahr,0,IR,1562993002,41,27.21,60.69,96.8,4.7
468,Santa Maria del Oro,78,MX,1562993003,62,25.95,-105.37,67.55,4.38
469,Lardos,20,GR,1562993005,64,36.09,28.02,73.99,10.29
470,Namibe,1,AO,1562993006,85,-15.19,12.15,65.21,3.51
471,Shubarkuduk,100,KZ,1562993007,18,49.15,56.49,98.87,16.46
472,Cabildo,90,CL,1562993008,93,-32.43,-71.07,46.4,2.75
473,Mogadishu,40,SO,1562992865,74,2.04,45.34,80.6,17.22
474,Innisfail,64,AU,1562993011,53,-17.52,146.03,71.01,3.0
475,Cornwall,90,CA,1562993012,93,45.02,-74.73,66.2,5.82
476,Lakes Entrance,100,AU,1562993013,90,-37.88,147.99,46.99,19.26
477,Turtas,74,RU,1562993014,46,58.94,69.13,85.37,7.7
478,Caohai,100,CN,1562993016,89,26.87,104.28,58.19,4.12
479,Nanortalik,77,GL,1562993017,88,60.14,-45.24,40.73,3.47
480,Dukhovnitskoye,83,RU,1562993018,73,52.48,48.21,66.47,9.1
481,Ha Noi,0,VN,1562993019,53,21.02,105.84,95.0,4.7
482,Jumla,72,NP,1562993021,75,29.28,82.18,66.47,4.94
483,Richards Bay,15,ZA,1562993023,81,-28.77,32.06,64.49,6.58
484,Deputatskiy,71,RU,1562993024,66,69.3,139.9,60.53,7.76
485,Teahupoo,75,PF,1562993025,88,-17.83,-149.27,75.2,8.05
486,Komsomolskiy,22,RU,1562993026,40,67.55,63.78,63.59,6.22
487,Mamallapuram,75,IN,1562993028,74,12.63,80.17,86.0,9.17
488,New Waterford,1,US,1562993029,93,40.85,-80.61,66.99,1.05
489,Bubaque,100,GW,1562993030,82,11.28,-15.83,78.35,7.36
490,Lichtenburg,0,ZA,1562993031,24,-26.15,26.16,53.15,10.27
491,Takaungu,40,KE,1562993033,94,-3.68,39.86,73.4,6.93
492,Phuthaditjhaba,0,ZA,1562993034,42,-28.53,28.82,44.87,0.72
493,Luena,0,AO,1562993035,37,-11.78,19.91,51.53,2.95
494,Fare,0,PF,1562993036,68,-16.7,-151.02,77.81,3.06
495,Karaidel,53,RU,1562993038,67,55.83,56.91,79.07,11.12
496,Banjar,42,ID,1562993039,57,-7.37,108.54,81.59,8.28
497,Diplo,95,PK,1562993040,51,24.47,69.59,92.03,25.79
498,Sitges,0,ES,1562993041,78,41.24,1.82,77.0,6.93
499,Gweta,0,BW,1562993042,21,-20.21,25.26,52.61,9.33
500,Yankton,75,US,1562992895,78,42.87,-97.4,80.6,5.82
501,Flin Flon,12,CA,1562993045,82,54.77,-101.88,58.37,6.49
502,Lastoursville,41,GA,1562993046,86,-0.81,12.73,70.25,1.03
503,Skibbereen,75,IE,1562993047,87,51.55,-9.27,53.6,8.05
504,Oktyabrskiy,40,RU,1562992864,82,55.61,37.97,55.4,4.47
505,Altay,19,CN,1562993050,41,47.83,88.13,66.29,5.7
506,Quang Ngai,9,VN,1562992805,32,15.12,108.8,101.03,1.32
507,Inuvik,20,CA,1562993052,54,68.36,-133.71,55.4,5.82
508,Guerrero Negro,0,MX,1562993054,84,27.97,-114.04,67.01,12.08
509,Prabumulih,11,ID,1562993055,53,-3.5,104.19,89.33,4.32
510,Troitsko-Pechorsk,100,RU,1562993056,84,62.71,56.19,60.89,6.98
511,Pali,90,IN,1562993057,44,25.77,73.33,94.55,23.24
512,Ewa Beach,20,US,1562993059,51,21.32,-158.01,86.0,14.99
513,Nelson Bay,12,AU,1562993060,25,-32.72,152.14,62.6,26.4
514,Kjopsvik,90,NO,1562993061,87,68.1,16.37,59.0,8.05
515,Esna,5,RO,1562993063,76,45.2,27.57,57.2,3.36
516,Tecoanapa,90,MX,1562993064,74,16.99,-99.26,84.2,2.24
517,Churapcha,32,RU,1562992786,42,62.0,132.43,85.37,2.44
518,Adrar,0,DZ,1562993066,8,27.87,-0.29,89.6,11.41
519,Ust-Tsilma,17,RU,1562993067,55,65.44,52.15,64.85,3.76
520,Leh,43,IN,1562993069,27,34.16,77.58,51.35,3.4
521,Severnoye,100,RU,1562993070,90,54.09,52.54,68.45,7.67
522,Vallenar,8,CL,1562993071,69,-28.58,-70.76,43.79,0.63
523,Igarka,28,RU,1562993073,53,67.47,86.57,68.45,18.01
524,Sept-Iles,90,CA,1562992820,87,50.2,-66.38,57.2,12.75
525,Cabadiangan,75,PH,1562993075,74,10.45,123.98,80.6,9.17
526,Portland,90,US,1562993076,93,43.66,-70.25,69.01,2.73
527,Cuauhtemoc,0,MX,1562993078,51,28.72,-111.63,93.99,8.99
528,Haverfordwest,73,GB,1562993079,82,51.8,-4.97,61.0,11.41
529,Pucara,100,BO,1562993080,98,-21.7,-64.2,55.13,1.77
530,Morondava,0,MG,1562993081,57,-20.3,44.28,70.61,9.26
531,Lufilufi,90,WS,1562993083,100,-13.87,-171.6,75.2,4.7
532,Bograd,0,RU,1562993084,72,54.22,90.86,68.0,4.47
533,Luanda,75,AO,1562993085,83,-8.83,13.24,71.6,4.7
534,Garissa,81,KE,1562993086,58,-0.46,39.64,79.07,19.75
535,Ouro Sogui,36,SN,1562993087,52,15.61,-13.32,82.85,15.32
536,Moron,6,HT,1562993089,82,18.56,-74.26,79.07,6.51
537,Sanand,40,IN,1562993090,66,22.99,72.38,87.8,11.41
538,Almeirim,0,BR,1562992897,97,-1.53,-52.58,70.43,2.37
539,Balkanabat,6,TM,1562993092,28,39.51,54.36,97.43,4.27
540,Sitamau,89,IN,1562993094,56,24.01,75.35,86.99,21.03
541,Warmbad,75,DE,1562993095,100,50.67,13.08,61.0,9.17
542,La Asuncion,99,AR,1562993096,95,-26.05,-65.39,47.93,0.96
543,Lethem,41,GY,1562993097,86,3.38,-59.8,74.93,6.38
544,Marzuq,83,YE,1562993099,22,14.4,46.47,89.15,7.85
545,Ashqelon,20,IL,1562992826,83,31.67,34.57,79.0,5.82
546,College,90,US,1562993101,93,64.86,-147.8,66.0,3.36
547,Yeppoon,49,AU,1562992887,22,-23.13,150.74,78.8,8.05
548,Dzialdowo,0,PL,1562993104,100,53.24,20.17,50.0,4.12
549,Kuytun,96,RU,1562993105,41,54.34,101.51,75.29,4.94
550,Minna,98,NG,1562993106,96,9.62,6.55,71.69,4.97
551,Kirksville,1,US,1562992996,83,40.19,-92.58,71.6,3.36
552,Bluefields,70,NI,1562993108,98,12.01,-83.77,73.67,2.28
553,Sitka,0,US,1562993110,74,37.17,-99.65,73.0,9.86
554,Padang,0,ID,1562992847,72,-0.92,100.36,82.67,6.96
555,Seidu,100,NG,1562993112,95,8.32,4.47,68.63,4.54
556,Kamaishi,40,JP,1562993113,61,39.28,141.86,80.6,4.7
557,Bintulu,75,MY,1562992912,83,3.17,113.03,78.8,17.22
558,Lebedinyy,37,RU,1562993116,41,58.52,125.52,77.81,5.12
559,Cayenne,20,GF,1562992930,94,4.94,-52.33,73.4,2.86
